<?xml version="1.0" encoding="UTF-8"?>
<kml xmlns="http://www.opengis.net/kml/2.2">
  <Document>
    <name>Line 2 Bloor - Danforth Line</name>
    <Style id="icon-1739-0F9D58-nodesc-normal">
      <IconStyle>
        <color>ff589d0f</color>
        <scale>1</scale>
        <Icon>
          <href>https://www.gstatic.com/mapspro/images/stock/503-wht-blank_maps.png</href>
        </Icon>
      </IconStyle>
      <LabelStyle>
        <scale>0</scale>
      </LabelStyle>
      <BalloonStyle>
        <text><![CDATA[<h3>$[name]</h3>]]></text>
      </BalloonStyle>
    </Style>
    <Style id="icon-1739-0F9D58-nodesc-highlight">
      <IconStyle>
        <color>ff589d0f</color>
        <scale>1</scale>
        <Icon>
          <href>https://www.gstatic.com/mapspro/images/stock/503-wht-blank_maps.png</href>
        </Icon>
      </IconStyle>
      <LabelStyle>
        <scale>1</scale>
      </LabelStyle>
      <BalloonStyle>
        <text><![CDATA[<h3>$[name]</h3>]]></text>
      </BalloonStyle>
    </Style>
    <StyleMap id="icon-1739-0F9D58-nodesc">
      <Pair>
        <key>normal</key>
        <styleUrl>#icon-1739-0F9D58-nodesc-normal</styleUrl>
      </Pair>
      <Pair>
        <key>highlight</key>
        <styleUrl>#icon-1739-0F9D58-nodesc-highlight</styleUrl>
      </Pair>
    </StyleMap>
    <Placemark>
      <name>Kipling</name>
      <styleUrl>#icon-1739-0F9D58-nodesc</styleUrl>
      <Point>
        <coordinates>
          -79.5362481,43.6370245,0
        </coordinates>
      </Point>
    </Placemark>
    <Placemark>
      <name>Islington</name>
      <styleUrl>#icon-1739-0F9D58-nodesc</styleUrl>
      <Point>
        <coordinates>
          -79.5239328,43.6452853,0
        </coordinates>
      </Point>
    </Placemark>
    <Placemark>
      <name>Royal York</name>
      <styleUrl>#icon-1739-0F9D58-nodesc</styleUrl>
      <Point>
        <coordinates>
          -79.5114443,43.6482065,0
        </coordinates>
      </Point>
    </Placemark>
    <Placemark>
      <name>Old Mill</name>
      <styleUrl>#icon-1739-0F9D58-nodesc</styleUrl>
      <Point>
        <coordinates>
          -79.4949727,43.6500958,0
        </coordinates>
      </Point>
    </Placemark>
    <Placemark>
      <name>Jane</name>
      <styleUrl>#icon-1739-0F9D58-nodesc</styleUrl>
      <Point>
        <coordinates>
          -79.483832,43.6499455,0
        </coordinates>
      </Point>
    </Placemark>
    <Placemark>
      <name>Runnymede</name>
      <styleUrl>#icon-1739-0F9D58-nodesc</styleUrl>
      <Point>
        <coordinates>
          -79.4759451,43.6517084,0
        </coordinates>
      </Point>
    </Placemark>
    <Placemark>
      <name>High Park</name>
      <styleUrl>#icon-1739-0F9D58-nodesc</styleUrl>
      <Point>
        <coordinates>
          -79.4668944,43.6538364,0
        </coordinates>
      </Point>
    </Placemark>
    <Placemark>
      <name>Keele</name>
      <styleUrl>#icon-1739-0F9D58-nodesc</styleUrl>
      <Point>
        <coordinates>
          -79.4598023,43.6555165,0
        </coordinates>
      </Point>
    </Placemark>
    <Placemark>
      <name>Dundas West</name>
      <styleUrl>#icon-1739-0F9D58-nodesc</styleUrl>
      <Point>
        <coordinates>
          -79.4528926,43.6569717,0
        </coordinates>
      </Point>
    </Placemark>
    <Placemark>
      <name>Lansdowne</name>
      <styleUrl>#icon-1739-0F9D58-nodesc</styleUrl>
      <Point>
        <coordinates>
          -79.442801,43.6590797,0
        </coordinates>
      </Point>
    </Placemark>
    <Placemark>
      <name>Dufferin</name>
      <styleUrl>#icon-1739-0F9D58-nodesc</styleUrl>
      <Point>
        <coordinates>
          -79.4355916,43.6602273,0
        </coordinates>
      </Point>
    </Placemark>
    <Placemark>
      <name>Ossington</name>
      <styleUrl>#icon-1739-0F9D58-nodesc</styleUrl>
      <Point>
        <coordinates>
          -79.4263058,43.662371,0
        </coordinates>
      </Point>
    </Placemark>
    <Placemark>
      <name>Christie</name>
      <styleUrl>#icon-1739-0F9D58-nodesc</styleUrl>
      <Point>
        <coordinates>
          -79.4183667,43.6641133,0
        </coordinates>
      </Point>
    </Placemark>
    <Placemark>
      <name>Bathurst</name>
      <styleUrl>#icon-1739-0F9D58-nodesc</styleUrl>
      <Point>
        <coordinates>
          -79.4112152,43.6660011,0
        </coordinates>
      </Point>
    </Placemark>
    <Placemark>
      <name>Spadina</name>
      <styleUrl>#icon-1739-0F9D58-nodesc</styleUrl>
      <Point>
        <coordinates>
          -79.4038347,43.6673526,0
        </coordinates>
      </Point>
    </Placemark>
    <Placemark>
      <name>St George</name>
      <styleUrl>#icon-1739-0F9D58-nodesc</styleUrl>
      <Point>
        <coordinates>
          -79.3998421,43.6682821,0
        </coordinates>
      </Point>
    </Placemark>
    <Placemark>
      <name>Bay</name>
      <styleUrl>#icon-1739-0F9D58-nodesc</styleUrl>
      <Point>
        <coordinates>
          -79.3906947,43.6701472,0
        </coordinates>
      </Point>
    </Placemark>
    <Placemark>
      <name>Bloor-Yonge</name>
      <styleUrl>#icon-1739-0F9D58-nodesc</styleUrl>
      <Point>
        <coordinates>
          -79.3856372,43.6709058,0
        </coordinates>
      </Point>
    </Placemark>
    <Placemark>
      <name>Sherbourne</name>
      <styleUrl>#icon-1739-0F9D58-nodesc</styleUrl>
      <Point>
        <coordinates>
          -79.376432,43.6721674,0
        </coordinates>
      </Point>
    </Placemark>
    <Placemark>
      <name>Castle Frank</name>
      <styleUrl>#icon-1739-0F9D58-nodesc</styleUrl>
      <Point>
        <coordinates>
          -79.3686386,43.6737948,0
        </coordinates>
      </Point>
    </Placemark>
    <Placemark>
      <name>Broadview</name>
      <styleUrl>#icon-1739-0F9D58-nodesc</styleUrl>
      <Point>
        <coordinates>
          -79.3583223,43.6768707,0
        </coordinates>
      </Point>
    </Placemark>
    <Placemark>
      <name>Chester</name>
      <styleUrl>#icon-1739-0F9D58-nodesc</styleUrl>
      <Point>
        <coordinates>
          -79.3524545,43.6782356,0
        </coordinates>
      </Point>
    </Placemark>
    <Placemark>
      <name>Pape</name>
      <styleUrl>#icon-1739-0F9D58-nodesc</styleUrl>
      <Point>
        <coordinates>
          -79.3449091,43.6799348,0
        </coordinates>
      </Point>
    </Placemark>
    <Placemark>
      <name>Donlands</name>
      <styleUrl>#icon-1739-0F9D58-nodesc</styleUrl>
      <Point>
        <coordinates>
          -79.3377767,43.6809959,0
        </coordinates>
      </Point>
    </Placemark>
    <Placemark>
      <name>Greenwood</name>
      <styleUrl>#icon-1739-0F9D58-nodesc</styleUrl>
      <Point>
        <coordinates>
          -79.3302658,43.6825632,0
        </coordinates>
      </Point>
    </Placemark>
    <Placemark>
      <name>Coxwell</name>
      <styleUrl>#icon-1739-0F9D58-nodesc</styleUrl>
      <Point>
        <coordinates>
          -79.3230702,43.684209,0
        </coordinates>
      </Point>
    </Placemark>
    <Placemark>
      <name>Woodbine</name>
      <styleUrl>#icon-1739-0F9D58-nodesc</styleUrl>
      <Point>
        <coordinates>
          -79.3126378,43.6864082,0
        </coordinates>
      </Point>
    </Placemark>
    <Placemark>
      <name>Main Street</name>
      <styleUrl>#icon-1739-0F9D58-nodesc</styleUrl>
      <Point>
        <coordinates>
          -79.301919,43.6889948,0
        </coordinates>
      </Point>
    </Placemark>
    <Placemark>
      <name>Victoria Park</name>
      <styleUrl>#icon-1739-0F9D58-nodesc</styleUrl>
      <Point>
        <coordinates>
          -79.2891314,43.6946598,0
        </coordinates>
      </Point>
    </Placemark>
    <Placemark>
      <name>Warden Station</name>
      <styleUrl>#icon-1739-0F9D58-nodesc</styleUrl>
      <Point>
        <coordinates>
          -79.2790166,43.7114089,0
        </coordinates>
      </Point>
    </Placemark>
  </Document>
</kml>
